,City,Lat,Lng,Max Temp,Humidity,Cloudiness,Windspeed,Country,Date
0,papatowai,-46.5619,169.4708,44.82,85,98,12.84,NZ,1711580433
1,tiksi,71.6872,128.8694,-9.81,95,100,5.17,RU,1711580433
2,qaqortoq,60.7167,-46.0333,14.4,99,19,2.06,GL,1711580434
3,adamstown,-25.066,-130.1015,76.41,68,48,13.35,PN,1711580434
4,bethel,41.3712,-73.414,51.01,82,100,1.01,US,1711580434
5,galle,6.0367,80.217,79.66,83,100,3.49,LK,1711580435
6,qulsary,46.9531,54.0198,42.37,73,100,24.07,KZ,1711580435
7,port saint john's,-31.6229,29.5448,71.46,91,100,7.09,ZA,1711580435
8,bathsheba,13.2167,-59.5167,81.21,74,20,9.22,BB,1711580436
9,puerto natales,-51.7236,-72.4875,46.6,92,100,2.51,CL,1711580436
10,hamilton,39.1834,-84.5333,50.23,55,20,10.0,US,1711580157
11,port-aux-francais,-49.35,70.2167,42.35,90,99,30.78,TF,1711580415
12,st. john's,47.5649,-52.7093,36.79,63,100,8.05,CA,1711580395
13,tazacorte,28.629,-17.9293,63.57,85,20,6.91,ES,1711580437
14,sakaiminato,35.55,133.2333,46.38,71,75,5.75,JP,1711580438
15,puerto baquerizo moreno,-0.9,-89.6,85.19,74,40,0.0,EC,1711580438
16,nishinoomote,30.7333,131.0,62.35,63,100,18.45,JP,1711580438
17,ushuaia,-54.8,-68.3,47.86,61,100,3.44,AR,1711580252
18,luderitz,-26.6481,15.1594,59.95,89,0,16.42,NA,1711580440
19,mwatate,-3.5029,38.3795,70.93,91,84,0.94,KE,1711580440
20,longyearbyen,78.2186,15.6401,22.84,74,75,10.36,SJ,1711580422
21,afaahiti,-17.75,-149.2833,85.87,76,58,16.87,PF,1711580440
22,uliastay,47.7417,96.8444,13.12,72,92,6.17,MN,1711580441
23,albany,42.6001,-73.9662,46.31,80,100,1.01,US,1711580424
24,laguna,38.421,-121.4238,60.08,81,100,8.05,US,1711580169
25,ribeira grande,38.5167,-28.7,50.77,78,99,15.99,PT,1711580439
26,kajaani,64.2273,27.7285,30.25,93,100,6.91,FI,1711580442
27,talnakh,69.4865,88.3972,-10.84,96,99,5.08,RU,1711580431
28,taungdwingyi,20.0167,95.55,77.41,37,58,2.98,MM,1711580442
29,nchelenge,-9.3451,28.734,75.54,79,70,7.0,ZM,1711580443
30,hawaiian paradise park,19.5933,-154.9731,76.03,89,100,5.01,US,1711580428
31,knoxville,35.9606,-83.9207,68.2,40,0,9.22,US,1711580280
32,kidal,18.4411,1.4078,81.23,21,94,9.55,ML,1711580443
33,kailua-kona,19.6406,-155.9956,81.28,78,9,1.99,US,1711580383
34,khash,28.2211,61.2158,60.15,42,100,0.72,IR,1711580444
35,plainview,40.7765,-73.4673,49.46,80,75,7.0,US,1711580345
36,badger,64.8,-147.5333,39.97,67,75,4.61,US,1711580430
37,mount gambier,-37.8333,140.7667,61.72,69,76,4.5,AU,1711580445
38,onguday,50.75,86.15,33.93,88,100,1.83,RU,1711580445
39,marvejols,44.5538,3.2914,37.33,87,35,13.47,FR,1711580445
40,lihue,21.9789,-159.3672,79.84,77,28,12.21,US,1711580445
41,margaret river,-33.95,115.0667,62.96,72,0,3.4,AU,1711580445
42,utena,55.5,25.6,43.83,60,65,15.82,LT,1711580357
43,quincy,42.2529,-71.0023,57.61,83,100,5.75,US,1711580177
44,carnarvon,-24.8667,113.6333,77.65,63,0,12.95,AU,1711580446
45,thompson,55.7435,-97.8558,21.36,38,75,21.85,CA,1711580430
46,palmer,42.1584,-72.3287,54.5,81,100,6.91,US,1711580426
47,toliara,-23.35,43.6667,79.18,74,0,8.63,MG,1711580447
48,la passe,45.5549,-0.8967,48.43,80,85,24.7,FR,1711580447
49,utrik,11.2278,169.8474,80.47,76,34,20.36,MH,1711580447
50,chonchi,-42.6128,-73.8092,63.61,90,8,1.32,CL,1711580444
51,kuala belait,4.5833,114.1833,78.96,80,100,4.47,BN,1711580448
52,aras-asan,8.8908,126.3033,78.91,86,99,2.06,PH,1711580448
53,isafjordur,66.0755,-23.124,31.1,58,72,12.19,IS,1711580435
54,boa vista,2.8197,-60.6733,94.98,36,66,3.44,BR,1711580417
55,el kala,36.8956,8.4433,55.81,68,3,6.08,DZ,1711580448
56,grytviken,-54.2811,-36.5092,43.56,94,100,11.48,GS,1711580417
57,east london,-33.0153,27.9116,69.53,82,100,4.41,ZA,1711580396
58,princeton,25.5384,-80.4089,80.6,82,75,10.36,US,1711580408
59,emerald,-23.5333,148.1667,76.33,84,100,13.44,AU,1711580381
60,waitangi,-43.9535,-176.5597,56.82,75,100,5.01,NZ,1711580410
61,panorama,40.5878,23.0315,54.68,89,75,5.99,GR,1711580450
62,moyamba,8.1667,-12.4333,78.1,83,48,3.0,SL,1711580450
63,kingston,17.997,-76.7936,85.15,66,20,13.8,JM,1711580199
64,pisco,-13.7,-76.2167,77.05,73,0,18.41,PE,1711580450
65,beyla,8.6833,-8.6333,77.63,71,91,4.59,GN,1711580451
66,bredasdorp,-34.5322,20.0403,64.06,80,100,10.78,ZA,1711580451
67,humberto de campos,-2.5983,-43.4611,76.28,91,99,4.16,BR,1711580451
68,polyarnyy,69.1989,33.4478,10.44,94,31,11.36,RU,1711580451
69,al kharijah,25.4514,30.5464,69.51,11,14,4.88,EG,1711580452
70,edd,13.9297,41.6925,84.2,61,1,16.13,ER,1711580452
71,ilulissat,69.2167,-51.1,19.42,86,100,10.36,GL,1711580452
72,buka,40.8108,69.1986,59.83,64,31,2.84,UZ,1711580452
73,constitucion,-35.3333,-72.4167,56.84,92,43,24.25,CL,1711580452
74,whitehorse,60.7161,-135.0538,42.82,65,75,3.0,CA,1711580453
75,anadyr,64.75,177.4833,1.9,77,75,8.95,RU,1711580443
76,antofagasta,-23.65,-70.4,70.88,82,6,4.38,CL,1711580412
77,susuman,62.7833,148.1667,2.98,98,98,1.01,RU,1711580453
78,baardheere,2.3446,42.2764,81.88,67,63,11.01,SO,1711580454
79,kodiak,57.79,-152.4072,33.71,67,99,5.57,US,1711580454
80,oriximina,-1.7656,-55.8661,82.92,77,100,2.98,BR,1711580454
81,massawa,15.6097,39.45,78.35,72,57,1.39,ER,1711580454
82,touros,-5.1989,-35.4608,81.32,74,99,3.47,BR,1711580455
83,shimoda,34.6667,138.95,50.11,68,100,4.92,JP,1711580455
84,ikot ekpene,5.1794,7.7108,82.22,81,99,6.55,NG,1711580455
85,la'ie,21.6477,-157.9253,80.56,81,0,11.01,US,1711580455
86,port mathurin,-19.6833,63.4167,77.88,65,98,16.67,MU,1711580431
87,edinburgh of the seven seas,-37.0676,-12.3116,66.87,93,100,26.28,SH,1711580456
88,blackmans bay,-43.0167,147.3167,58.73,65,9,3.0,AU,1711580456
89,klaksvik,62.2266,-6.589,36.52,75,100,41.03,FO,1711580456
90,south suffolk,36.7171,-76.5902,51.69,82,100,5.75,US,1711580456
91,tarawa,1.419,172.984,86.09,79,20,9.22,KI,1711580457
92,wailua homesteads,22.0669,-159.378,79.23,78,34,7.0,US,1711580435
93,west island,-12.1568,96.8225,80.58,83,100,9.22,CC,1711580457
94,yellowknife,62.456,-114.3525,27.12,36,20,12.66,CA,1711580363
95,charlestown,-32.95,151.6667,75.02,87,4,5.99,AU,1711580458
96,lebu,-37.6167,-73.65,58.01,89,0,14.34,CL,1711580458
97,lake stevens,48.0151,-122.0637,53.83,83,100,16.11,US,1711580409
98,mangai,-4.05,19.5333,74.57,83,100,1.32,CD,1711580458
99,progreso,21.2833,-89.6667,86.11,88,2,15.03,MX,1711580459
100,los andes,-32.8337,-70.5983,75.0,49,2,5.97,CL,1711580412
101,codrington,-38.2667,141.9667,60.13,73,93,4.85,AU,1711580459
102,lethem,3.3803,-59.7968,94.6,33,53,9.13,GY,1711580459
103,vernon,50.2581,-119.2691,45.75,82,100,1.14,CA,1711580301
104,puerto ayora,-0.7393,-90.3518,89.56,90,75,4.0,EC,1711580449
105,pervari,37.9357,42.5493,36.91,68,99,6.42,TR,1711580460
106,ambon,-3.6954,128.1814,83.88,95,40,4.61,ID,1711580460
107,gadzhiyevo,69.2551,33.3362,18.79,87,35,12.28,RU,1711580460
108,severo-yeniseyskiy,60.3725,93.0408,0.75,99,100,2.66,RU,1711580461
109,kujang-up,39.8672,126.0303,44.85,92,100,5.86,KP,1711580248
110,poltavka,54.3663,71.7632,34.29,100,100,5.99,RU,1711580461
111,petropavlovsk-kamchatsky,53.0452,158.6483,21.79,50,0,8.95,RU,1711580414
112,montepuez,-13.1256,38.9997,69.4,99,99,4.88,MZ,1711580462
113,callao,-12.0667,-77.15,77.29,69,0,20.71,PE,1711580222
114,taoudenni,22.6783,-3.9836,74.28,13,0,5.93,ML,1711580462
115,boyolangu,-8.1181,111.8935,76.35,90,99,2.71,ID,1711580462
116,tsiombe,-25.3,45.4833,71.11,88,34,9.73,MG,1711580463
117,tura,25.5198,90.2201,66.88,72,26,3.62,IN,1711580463
118,tazovsky,67.4667,78.7,-21.46,100,48,3.29,RU,1711580463
119,troitsko-pechorsk,62.7084,56.1964,17.29,88,100,6.89,RU,1711580464
120,tan-tan,28.438,-11.1032,60.08,63,0,5.99,MA,1711580464
121,mbekenyera,-10.0,38.9833,71.67,97,98,3.36,TZ,1711580464
122,la ronge,55.1001,-105.2842,25.05,36,20,12.66,CA,1711580464
123,iqaluit,63.7506,-68.5145,6.53,66,75,6.91,CA,1711580422
124,vanimo,-2.6741,141.3028,80.44,84,100,3.87,PG,1711580465
125,shevchenko,48.5,35.0,47.77,66,54,6.58,UA,1711580465
126,invercargill,-46.4,168.35,48.02,80,95,13.0,NZ,1711580461
127,keflavik,64.0049,-22.5624,30.63,64,20,17.27,IS,1711580465
128,bam,29.106,58.357,66.96,34,35,7.36,IR,1711580466
129,new plymouth,-39.0667,174.0833,61.81,82,82,17.02,NZ,1711580466
130,island harbour,50.724,-1.2758,49.98,86,99,18.01,GB,1711580466
131,fort st. john,56.2499,-120.8529,40.89,38,75,6.91,CA,1711580407
132,aioun,16.6614,-9.6149,82.62,20,96,8.14,MR,1711580467
133,northumberland,55.25,-2.0,37.85,95,86,8.21,GB,1711580445
134,kunwi,36.2347,128.5728,49.3,77,100,3.2,KR,1711580467
135,cupira,-8.6167,-35.95,74.97,89,100,3.58,BR,1711580437
136,iskateley,67.6803,53.1512,-0.98,99,59,5.99,RU,1711580468
137,rio grande,-32.035,-52.0986,73.51,73,96,8.95,BR,1711580444
138,lerwick,60.1545,-1.1494,44.6,91,88,21.47,GB,1711580468
139,olyokminsk,60.3736,120.4264,6.42,90,100,9.01,RU,1711580469
140,kayangel,8.0823,134.7173,82.74,80,85,18.81,PW,1711580469
141,novohrad-volynskyi,50.5941,27.6165,44.24,70,22,16.11,UA,1711580240
142,guerrero negro,27.9769,-114.0611,71.01,41,0,12.91,MX,1711580469
143,aykhal,66.0,111.5,-24.52,100,63,4.94,RU,1711580279
144,hermanus,-34.4187,19.2345,64.8,83,100,13.42,ZA,1711580470
145,saipan,15.1355,145.701,83.64,1,36,5.01,MP,1711580470
146,nagqu,31.5,92.0,22.87,24,80,4.03,CN,1711580470
147,sanford,28.8006,-81.2731,77.05,74,40,9.22,US,1711580261
148,ola,59.5833,151.2833,19.69,87,100,1.81,RU,1711580471
149,wanning,18.8003,110.3967,73.98,92,56,4.52,CN,1711580471
150,palangkaraya,-2.2,113.8333,74.8,98,100,0.92,ID,1711580471
151,sisimiut,66.9395,-53.6735,8.53,95,73,8.08,GL,1711580445
152,nova vicosa,-17.8919,-39.3719,75.67,94,99,2.48,BR,1711580424
153,olonkinbyen,70.9221,-8.7187,25.36,66,31,3.4,SJ,1711580472
154,walvis bay,-22.9575,14.5053,60.1,80,0,6.69,NA,1711580472
155,udachny,66.4167,112.4,-25.74,99,49,4.63,RU,1711580472
156,hilo,19.7297,-155.09,76.12,92,100,4.61,US,1711580384
157,calvi,42.5,8.8333,48.83,66,75,23.02,FR,1711580473
158,okha,53.5739,142.9478,25.02,88,84,8.39,RU,1711580473
159,ubari,26.5921,12.7805,70.5,22,42,22.48,LY,1711580473
160,shpola,49.0069,31.3947,41.14,76,37,10.04,UA,1711580474
161,atafu village,-8.5421,-172.5159,83.98,72,100,5.41,TK,1711580346
162,juneau,58.3019,-134.4197,48.42,100,29,5.5,US,1711580450
163,san pedro,14.35,121.0167,82.31,81,20,8.05,PH,1711580303
164,paradip garh,20.3167,86.6167,77.79,82,0,11.59,IN,1711580475
165,bilibino,68.0546,166.4372,-1.88,93,45,0.63,RU,1711580461
166,taro,-8.3862,115.28,73.4,87,97,0.11,ID,1711580475
167,freeport,40.6576,-73.5832,49.96,81,75,7.0,US,1711580319
168,kifri,34.6959,44.9661,57.9,45,46,8.41,IQ,1711580476
169,inari,68.906,27.0288,11.97,95,100,4.12,FI,1711580476
170,fale old settlement,-9.3852,-171.2468,83.86,76,100,7.14,TK,1711580476
171,halabjah,35.1778,45.9861,47.88,68,36,1.48,IQ,1711580476
172,antsohihy,-14.8796,47.9875,78.46,70,100,11.43,MG,1711580477
173,adoru,6.9766,7.1627,85.95,64,59,8.55,NG,1711580477
174,vilyuchinsk,52.9306,158.4028,23.27,65,73,2.91,RU,1711580477
175,dondo,-19.6094,34.7431,80.11,89,8,2.66,MZ,1711580477
176,vadso,70.0744,29.7487,23.16,68,0,9.22,NO,1711580465
177,mount pearl,47.5166,-52.7813,35.96,63,100,8.05,CA,1711580467
178,ujae,8.9322,165.7642,81.46,77,95,17.92,MH,1711580478
179,treinta y tres,-33.2333,-54.3833,63.34,76,44,7.7,UY,1711580415
180,susanville,40.4163,-120.653,51.64,59,0,10.0,US,1711580479
181,caala,-12.8525,15.5606,62.13,86,92,2.44,AO,1711580479
182,verkhnevilyuysk,63.4453,120.3167,-7.35,99,92,4.65,RU,1711580480
183,makokou,0.5738,12.8642,72.19,93,81,2.21,GA,1711580480
184,haiku-pauwela,20.9219,-156.3051,82.22,76,25,11.99,US,1711580480
185,college,64.8569,-147.8028,40.06,60,75,4.61,US,1711580401
186,jiamusi,46.8333,130.35,38.46,80,100,8.46,CN,1711580428
187,cherepanovo,54.2222,83.381,28.9,93,100,6.98,RU,1711580481
188,hafar al-batin,28.4328,45.9708,66.78,37,0,6.91,SA,1711580481
189,aasiaat,68.7098,-52.8699,10.51,86,100,10.22,GL,1711580474
190,newport,51.5877,-2.9984,43.45,92,87,6.53,GB,1711580274
191,tubarjal,30.4999,38.216,66.2,35,48,13.27,SA,1711580482
192,griffith,41.5284,-87.4237,43.95,54,75,11.5,US,1711580440
193,chui,-33.6971,-53.4616,64.63,78,77,7.25,UY,1711580483
194,mahanje,-9.9333,35.3333,65.52,98,87,1.12,TZ,1711580483
195,sitka,57.0531,-135.33,49.42,59,98,3.33,US,1711580415
196,vila franca do campo,37.7167,-25.4333,57.61,83,85,26.06,PT,1711580484
197,selfoss,63.9331,-20.9971,26.24,57,0,13.67,IS,1711580484
198,kievka,50.2619,71.5514,32.85,98,26,10.22,KZ,1711580484
199,port elizabeth,-33.918,25.5701,68.09,98,75,3.44,ZA,1711580412
200,new norfolk,-42.7826,147.0587,59.92,63,26,3.29,AU,1711580413
201,mahebourg,-20.4081,57.7,77.25,83,75,4.61,MU,1711580485
202,san luis de la loma,17.2706,-100.8939,79.97,54,7,6.13,MX,1711580485
203,stanley,54.868,-1.6985,38.77,88,20,2.3,GB,1711580451
204,saudarkrokur,65.7461,-19.6394,11.39,90,7,6.64,IS,1711580486
205,bhadasar,28.2833,74.3167,82.02,28,100,9.31,IN,1711580487
206,chalonnes-sur-loire,47.3516,-0.7631,48.04,91,100,22.95,FR,1711580487
207,es castell,39.8795,4.2854,59.68,94,100,20.71,ES,1711580488
208,manavalakurichi,8.1333,77.3,79.75,80,23,3.91,IN,1711580488
209,kuala terengganu,5.3302,103.1408,80.55,94,40,2.3,MY,1711580488
210,punta arenas,-53.15,-70.9167,48.31,81,100,8.05,CL,1711580231
211,rosarito,32.3333,-117.0333,71.53,78,44,7.23,MX,1711580455
212,hesla,24.0667,85.8833,72.99,35,21,5.46,IN,1711580489
213,west end,26.6833,-78.9667,76.98,72,41,9.22,BS,1711580489
214,belomorsk,64.5232,34.7668,21.34,94,96,4.03,RU,1711580489
215,persembe,41.0656,37.7714,50.68,82,93,6.53,TR,1711580489
216,monrovia,6.3005,-10.7969,80.37,90,2,7.87,LR,1711580413
217,igarka,67.4667,86.5833,-24.72,100,19,3.18,RU,1711580466
218,luganville,-15.5333,167.1667,85.3,76,98,0.47,VU,1711580484
219,williamson,30.6502,-97.6003,65.1,61,40,13.8,US,1711580443
220,lompoc,34.6391,-120.4579,69.69,67,0,10.36,US,1711580491
221,ar ruways,24.1103,52.7306,69.66,58,13,9.93,AE,1711580491
222,prince rupert,54.3161,-130.3201,50.09,57,100,3.44,CA,1711580491
223,queimadas,-10.9783,-39.6264,81.72,63,97,10.56,BR,1711580491
224,chegdomyn,51.1167,133.0167,29.97,69,100,1.19,RU,1711580492
225,colonia,50.9333,6.95,47.82,83,0,6.91,DE,1711580353
226,puan,35.7281,126.7319,49.89,85,100,6.89,KR,1711580492
227,qarqaraly,49.4058,75.4742,34.25,91,100,1.19,KZ,1711580493
228,amga,60.8953,131.9608,27.16,96,100,3.6,RU,1711580493
229,yuzhno-kurilsk,44.0306,145.8556,33.19,77,11,5.82,RU,1711580494
230,bol'sherech'ye,56.0925,74.6272,33.71,100,100,5.84,RU,1711580494
231,safford,32.834,-109.7076,66.74,30,0,9.22,US,1711580494
232,mount isa,-20.7333,139.5,74.97,78,43,8.05,AU,1711580461
233,hirara,24.8,125.2833,71.46,88,100,9.22,JP,1711580495
234,katsuren-haebaru,26.3369,127.8719,69.1,77,20,6.91,JP,1711580495
235,port alfred,-33.5906,26.891,66.18,98,100,2.77,ZA,1711580451
236,yeniseysk,58.4497,92.1703,11.95,97,99,4.0,RU,1711580495
237,enewetak,11.3474,162.3373,80.49,75,97,16.87,MH,1711580496
238,sodankyla,67.4167,26.6,16.83,96,97,7.45,FI,1711580496
239,coruripe,-10.1256,-36.1756,82.02,80,95,9.44,BR,1711580204
240,tromso,69.6496,18.957,26.62,80,75,3.44,NO,1711580344
241,le port,-20.9373,55.2919,75.2,76,100,4.07,RE,1711580264
242,malanville,11.8685,3.3899,95.36,31,71,7.31,BJ,1711580497
243,kizel,59.0471,57.6477,24.24,80,100,3.0,RU,1711580497
244,port-cartier,50.0334,-66.8654,32.76,99,100,7.9,CA,1711580498
245,ta`u,-14.2336,-169.5144,84.0,73,100,9.51,AS,1711580498
246,rawson,-43.3002,-65.1023,62.28,50,24,9.64,AR,1711580450
247,saint johnsbury,44.4192,-72.0151,44.58,93,100,0.0,US,1711580498
248,tralee,52.2704,-9.7026,34.65,89,43,7.96,IE,1711580498
249,ormara,25.2088,64.6357,76.23,72,100,14.72,PK,1711580499
250,nhamunda,-2.1861,-56.7131,80.44,86,62,0.98,BR,1711580499
251,ust-nera,64.5667,143.2,13.5,95,86,3.24,RU,1711580421
252,oak grove,45.4168,-122.6401,57.16,76,80,17.0,US,1711580499
253,guangshui,31.6199,113.9978,52.07,92,95,2.59,CN,1711580499
254,roma,43.2128,-75.4557,55.54,75,0,9.22,US,1711580218
255,tucuma,-0.1833,-50.05,77.94,93,18,5.77,BR,1711580500
256,teabo,20.4,-89.2833,98.49,30,0,11.07,MX,1711580500
257,kapuskasing,49.4169,-82.4331,32.09,59,100,27.63,CA,1711580456
258,queenstown,-31.8976,26.8753,60.93,91,100,2.44,ZA,1711580486
259,christchurch,-43.5333,172.6333,66.9,40,100,20.71,NZ,1711580217
260,northam,51.0333,-4.2167,36.39,88,100,5.21,GB,1711580501
261,smithers,54.7804,-127.1743,52.12,32,75,9.22,CA,1711580501
262,agbabu,6.5886,4.8343,80.78,89,80,2.26,NG,1711580501
263,dudinka,69.4058,86.1778,-15.32,99,99,5.01,RU,1711580455
264,el calafate,-50.3408,-72.2768,51.87,81,76,7.05,AR,1711580326
265,bamboo flat,11.7,92.7167,78.89,83,69,2.3,IN,1711580502
266,nyurba,63.2842,118.3319,-11.94,99,89,3.85,RU,1711580502
267,orsa,54.5153,30.4053,38.8,78,93,12.39,BY,1711580220
268,cabedelo,-6.9811,-34.8339,79.47,84,100,5.35,BR,1711580478
269,chengde,40.9725,117.9361,36.12,26,0,15.68,CN,1711580494
270,piacabucu,-10.4056,-36.4344,82.26,79,100,8.48,BR,1711580464
271,sorong,-0.8833,131.25,80.44,85,98,8.41,ID,1711580504
272,lorengau,-2.0226,147.2712,83.17,79,81,2.62,PG,1711580484
273,itaituba,-4.2761,-55.9836,79.41,88,97,1.52,BR,1711580477
274,alamos,27.0167,-108.9333,85.39,8,5,7.16,MX,1711580400
275,sedalia,38.7045,-93.2283,53.44,32,0,4.61,US,1711580342
276,holualoa,19.6228,-155.9522,77.56,78,7,3.0,US,1711580505
277,pytalovo,57.0679,27.9138,42.93,66,86,11.41,RU,1711580505
278,vylkove,45.4021,29.586,47.16,75,42,15.28,UA,1711580505
279,tchintabaraden,15.8969,5.7985,82.72,10,60,6.22,NE,1711580505
280,xilin hot,43.9667,116.0333,16.57,47,78,21.52,CN,1711580228
281,klyuchi,52.2667,79.1667,36.54,96,98,9.33,RU,1711580506
282,esmeraldas,-19.7625,-44.3139,77.86,91,100,4.65,BR,1711580355
283,buenaventura,3.8801,-77.0312,78.39,92,99,2.73,CO,1711580506
284,m'sila,35.7058,4.5419,55.13,56,1,1.95,DZ,1711580506
285,haci zeynalabdin,40.6233,49.5586,44.74,65,0,3.02,AZ,1711580507
286,porto belo,-27.1578,-48.5531,77.16,77,25,8.79,BR,1711580507
287,ndele,8.4109,20.6473,79.25,17,100,4.41,CF,1711580507
288,santa sylvina,-27.8326,-61.1375,74.05,38,4,6.93,AR,1711580507
289,usinsk,65.9939,57.5281,6.08,91,100,11.01,RU,1711580508
290,saint-philippe,-21.3585,55.7679,74.79,85,100,10.04,RE,1711580473
291,nogliki,51.8333,143.1667,23.34,79,83,4.0,RU,1711580299
292,bayevo,53.2833,80.7667,27.68,96,100,4.83,RU,1711580508
293,bayanhongor,46.7167,100.1167,1.76,81,96,2.98,MN,1711580509
294,minas de marcona,-15.2119,-75.1103,72.27,64,22,5.99,PE,1711580435
295,georgetown,5.4112,100.3354,80.94,89,20,3.44,MY,1711580509
296,parakou,9.3372,2.6303,89.82,42,99,4.21,BJ,1711580509
297,matiri,-10.75,34.9,61.9,96,89,2.82,TZ,1711580509
298,yaren,-0.5472,166.916,82.65,79,64,10.54,NR,1711580510
299,happy valley-goose bay,53.3168,-60.3315,32.31,100,100,6.91,CA,1711580344
300,coquimbo,-29.9533,-71.3436,62.33,88,75,6.91,CL,1711580457
301,lodja,-3.4833,23.4333,72.48,90,83,0.98,CD,1711580510
302,ulsteinvik,62.3432,5.8487,43.3,79,94,3.0,NO,1711580477
303,illizi,26.4833,8.4667,67.8,28,0,5.28,DZ,1711580470
304,ciudad lazaro cardenas,17.9583,-102.2,78.75,55,1,7.94,MX,1711580511
305,sarangani,5.4033,125.4636,82.58,76,100,16.58,PH,1711580511
306,wanxian,30.8039,108.3897,58.55,92,22,4.14,CN,1711580511
307,silver city,32.7701,-108.2803,58.66,33,0,10.36,US,1711580511
308,khandyga,62.6667,135.6,19.11,96,100,2.44,RU,1711580441
309,jamestown,42.097,-79.2353,39.02,90,100,9.22,US,1711580215
310,novodnistrovsk,48.5849,27.4311,44.56,62,70,19.84,UA,1711580512
311,vorgashor,67.5833,63.95,-11.9,100,81,4.79,RU,1711580477
312,gassol,8.5333,10.4667,87.1,11,96,2.98,NG,1711580513
313,lavra,41.2594,-8.7185,52.23,66,75,13.8,PT,1711580513
314,mugia,43.1041,-9.2179,48.9,64,84,34.92,ES,1711580513
315,vega de alatorre,20.0333,-96.6333,75.81,73,12,15.03,MX,1711580513
316,sao felix do xingu,-6.6447,-51.995,75.25,96,71,2.55,BR,1711580514
317,lycksele,64.5954,18.6735,31.87,100,100,8.05,SE,1711580514
318,kudat,6.8837,116.8477,78.73,94,70,0.0,MY,1711580484
319,urzhar,47.093,81.6294,48.7,63,100,5.37,KZ,1711580514
320,wynyard,-41.0,145.7167,59.92,54,2,2.24,AU,1711580515
321,tolanaro,-25.0319,46.9987,70.52,89,2,10.38,MG,1711580490
322,quellon,-43.1167,-73.6167,53.91,81,16,3.51,CL,1711580515
323,shetpe,44.1667,52.1167,43.61,87,96,21.5,KZ,1711580515
324,port lincoln,-34.7333,135.8667,64.96,68,39,13.33,AU,1711580406
325,lloydminster,53.2835,-110.0016,32.22,59,20,19.57,CA,1711580369
326,piti village,13.4626,144.6933,80.71,88,100,6.91,GU,1711580516
327,magadan,59.5667,150.8,20.7,90,100,2.3,RU,1711580433
328,kalevala,65.2,31.1667,25.09,85,100,3.0,RU,1711580516
329,ilha de mocambique,-15.0342,40.7358,82.33,79,84,11.72,MZ,1711580517
330,kalmunai,7.4167,81.8167,80.19,84,53,4.03,LK,1711580517
331,saint-pierre,-21.3393,55.4781,74.88,83,100,8.05,RE,1711580262
332,cabo san lucas,22.8909,-109.9124,77.76,51,0,7.0,MX,1711580415
333,fort bragg,35.139,-79.006,64.49,93,100,6.91,US,1711580518
334,cromer,52.9312,1.2989,44.15,86,100,8.99,GB,1711580518
335,alice springs,-23.7,133.8833,70.21,77,40,3.0,AU,1711580363
336,port macquarie,-31.4333,152.9167,74.89,76,12,3.04,AU,1711580487
337,kavaratti,10.5669,72.642,82.11,73,97,7.45,IN,1711580519
338,baoro,5.6667,15.9667,74.55,56,38,1.79,CF,1711580519
339,san patricio,28.017,-97.5169,75.06,46,8,3.51,US,1711580519
340,mazamari,-11.3258,-74.5308,75.99,84,99,1.63,PE,1711580520
341,labrador city,52.9463,-66.9114,33.71,85,100,14.97,CA,1711580411
342,burang,30.25,81.1667,23.79,85,91,4.92,CN,1711580520
343,behbahan,30.5959,50.2417,61.97,49,100,4.92,IR,1711580520
344,komsomolets,53.7453,62.0708,34.2,90,67,9.98,KZ,1711580521
345,uturoa,-16.7333,-151.4333,83.37,71,64,16.58,PF,1711580521
346,hammerfest,70.6634,23.6821,25.25,80,75,11.5,NO,1711580374
347,chandbali,20.7833,86.7667,75.16,81,1,3.06,IN,1711580521
348,remire-montjoly,4.9167,-52.2667,78.84,89,0,4.61,GF,1711580522
349,villa canas,-34.0057,-61.6076,73.94,81,100,8.1,AR,1711580522
350,parintins,-2.6283,-56.7358,79.23,90,83,1.59,BR,1711580522
351,vila velha,-20.3297,-40.2925,78.75,81,40,11.5,BR,1711580432
352,constantia,44.1833,28.65,47.08,93,45,11.1,RO,1711580451
353,along,28.1667,94.7667,57.94,87,69,1.79,IN,1711580523
354,untsukul',42.7115,46.7866,33.91,78,28,6.85,RU,1711580523
355,lobujya,27.95,86.8167,15.17,53,18,9.86,NP,1711580524
356,mhamid,29.82,-5.72,62.02,16,0,8.1,MA,1711580524
357,flying fish cove,-10.4217,105.6791,78.48,78,40,10.36,CX,1711580503
358,hamina,60.5697,27.1979,36.32,90,99,7.56,FI,1711580356
359,zaraysk,54.7653,38.8836,29.59,96,22,3.06,RU,1711580524
360,nova xavantina,-14.6667,-52.35,74.05,96,99,4.41,BR,1711580464
361,antanifotsy,-19.65,47.3167,58.46,97,100,3.02,MG,1711580525
362,levuka,50.1834,-105.4011,37.13,32,40,10.36,CA,1711580525
363,galliano,29.4422,-90.2992,69.8,43,0,13.8,US,1711580520
364,dunedin,-45.8742,170.5036,49.8,67,100,8.99,NZ,1711580409
365,thinadhoo,0.5333,72.9333,82.27,73,87,4.9,MV,1711580526
366,kruisfontein,-34.0033,24.7314,65.88,90,100,3.69,ZA,1711580526
367,swanage,50.6092,-1.9626,48.24,89,100,27.0,GB,1711580527
368,adrar,20.5022,-10.0711,70.7,24,100,9.71,MR,1711580527
369,kongolo,-5.3833,27.0,72.48,95,90,0.6,CD,1711580500
370,shalazhi,43.0978,45.3608,42.15,74,70,5.73,RU,1711580527
371,lashio,22.9333,97.75,62.51,60,84,2.06,MM,1711580528
372,ar rutbah,33.0381,40.2848,60.71,54,91,12.1,IQ,1711580528
373,purpe,64.4803,76.6897,-3.17,99,98,9.15,RU,1711580528
374,suva,-18.1416,178.4415,85.48,70,75,8.05,FJ,1711580300
375,novyy urengoy,66.0833,76.6333,-17.59,100,90,4.14,RU,1711580529
376,atmakur,15.8833,78.5833,76.51,56,35,5.06,IN,1711580529
377,nar'yan-mar,67.6713,53.087,-0.89,99,59,5.99,RU,1711580424
378,grand falls-windsor,48.9332,-55.6649,38.5,59,100,1.99,CA,1711580529
379,ambovombe,-25.1667,46.0833,70.09,86,11,9.17,MG,1711580530
380,aldinga beach,-35.2793,138.4604,65.44,70,2,11.07,AU,1711580530
381,luza,60.6308,47.2512,17.28,96,74,4.99,RU,1711580530
382,nuuk,64.1835,-51.7216,13.57,97,99,2.73,GL,1711580413
383,imbituba,-28.24,-48.6703,72.3,80,0,11.7,BR,1711580473
384,greymouth,-42.4667,171.2,54.95,84,100,21.39,NZ,1711580519
385,tonj,7.2737,28.6822,80.87,20,39,4.38,SS,1711580531
386,yeed,4.55,43.0333,82.6,61,78,20.4,SO,1711580532
387,hun,29.1268,15.9477,67.1,46,86,13.62,LY,1711580532
388,tieli,46.95,128.05,42.31,83,100,17.78,CN,1711580532
389,sungailiat,-1.85,106.1333,79.16,86,100,7.67,ID,1711580344
390,praia da vitoria,38.7333,-27.0667,51.76,100,75,32.91,PT,1711580460
391,scarborough,54.2797,-0.4044,42.37,85,38,4.0,GB,1711580533
392,siavonga,-16.5382,28.7088,75.94,66,35,8.68,ZM,1711580533
393,cockburn town,21.4612,-71.1419,74.26,65,0,13.04,TC,1711580533
394,moberly,39.4184,-92.4382,48.18,41,75,8.05,US,1711580450
395,changji,44.0167,87.3167,45.39,61,0,2.24,CN,1711580534
396,taltal,-25.4,-70.4833,68.65,81,23,3.74,CL,1711580421
397,pembroke,45.8168,-77.1162,46.38,74,94,7.67,CA,1711580513
398,tvarditsa,42.7,25.9,47.68,92,90,6.87,BG,1711580534
399,pitimbu,-7.4706,-34.8086,79.39,81,100,3.44,BR,1711580534
400,al fallujah,33.3538,43.7795,57.09,44,28,6.49,IQ,1711580490
401,nemuro,43.3236,145.575,31.62,73,2,3.74,JP,1711580535
402,avarua,-21.2078,-159.775,86.05,79,20,6.91,CK,1711580300
403,nava,28.4167,-100.7667,77.47,21,37,9.04,MX,1711580535
404,malango,-2.9627,119.9001,69.87,95,89,1.48,ID,1711580475
405,westport,41.1415,-73.3579,50.32,84,100,4.61,US,1711580446
406,yamada,39.4667,141.95,42.91,50,1,6.22,JP,1711580536
407,eastbourne,50.7687,0.2845,49.32,87,49,7.0,GB,1711580536
408,luebo,-5.35,21.4167,75.83,82,99,1.01,CD,1711580536
409,belyy yar,53.6039,91.3903,28.29,86,0,0.0,RU,1711580467
410,avila,40.5833,-5.0,43.65,88,92,17.47,ES,1711580537
411,hadibu,12.65,54.0333,79.59,78,70,9.55,YE,1711580537
412,veshkayma,54.05,47.1333,29.14,90,100,22.21,RU,1711580537
413,fortuna,40.5982,-124.1573,57.65,94,100,8.05,US,1711580246
414,tsarevo,42.1667,27.85,48.96,81,93,4.56,BG,1711580538
415,tchibanga,-2.85,11.0333,75.51,96,100,1.19,GA,1711580538
416,caconda,-13.7333,15.0667,65.17,81,100,1.07,AO,1711580539
417,hutchinson,38.0608,-97.9298,57.04,34,47,1.99,US,1711580361
418,east end,34.5507,-92.341,61.61,37,83,1.99,US,1711580539
419,harper,4.375,-7.7169,81.01,89,11,4.81,LR,1711580539
420,novodvinsk,64.4165,40.8122,10.15,98,62,1.9,RU,1711580540
421,akureyri,65.6835,-18.0878,26.53,68,75,5.75,IS,1711580463
422,rio san juan,19.6439,-70.0763,73.08,67,2,7.58,DO,1711580540
423,aquiraz,-3.9014,-38.3911,80.19,90,100,5.17,BR,1711580434
424,campo gallo,-26.5833,-62.85,83.1,37,80,5.95,AR,1711580541
425,santa maria,-29.6842,-53.8069,74.5,83,0,3.44,BR,1711580491
426,moree,-29.4667,149.85,71.37,66,87,6.31,AU,1711580541
427,balakhta,55.38,91.6,24.67,97,100,2.19,RU,1711580541
428,tshabong,-26.05,22.45,71.69,56,100,9.62,BW,1711580542
429,altamont,42.2068,-121.7372,39.4,92,100,12.66,US,1711580542
430,arraial do cabo,-22.9661,-42.0278,75.16,88,75,4.61,BR,1711580525
431,mar del plata,-38.0023,-57.5575,73.94,77,0,8.05,AR,1711580496
432,dihok,36.8695,42.994,46.36,52,90,4.56,IQ,1711580543
433,pangody,65.85,74.4859,-14.44,100,87,5.23,RU,1711580543
434,martapura,-3.4167,114.85,78.89,89,20,5.75,ID,1711580543
435,pangai,-19.8,-174.35,84.31,84,75,6.91,TO,1711580544
436,jutai,-5.1833,-68.9,74.71,96,100,1.03,BR,1711580544
437,bel ombre,-4.6167,55.4167,80.44,89,75,2.3,SC,1711580486
438,yanam,16.7333,82.2167,73.45,92,7,2.3,IN,1711580544
439,zdvinsk,54.7021,78.661,32.2,97,100,4.52,RU,1711580545
440,cartagena,10.3997,-75.5144,85.62,66,0,9.22,CO,1711580458
441,nadym,65.5333,72.5167,-8.99,100,95,6.08,RU,1711580545
442,mansa,29.9833,75.3833,74.17,34,100,7.85,IN,1711580546
443,waingapu,-9.6567,120.2641,79.29,85,100,3.98,ID,1711580546
444,coxim,-18.5067,-54.76,73.0,95,99,3.83,BR,1711580500
445,grand baie,-20.0182,57.5802,77.45,78,96,1.01,MU,1711580546
446,port isabel,26.0734,-97.2086,75.29,76,0,21.85,US,1711580304
447,oranjemund,-28.55,16.4333,59.83,97,32,5.68,NA,1711580547
448,pandan,14.0453,124.1694,79.93,88,51,9.64,PH,1711580547
449,kavali,14.9167,79.9833,74.32,90,85,7.85,IN,1711580547
450,hounde,11.5,-3.5167,90.43,36,25,2.73,BF,1711580547
451,aleksandrovsk-sakhalinskiy,50.8975,142.1561,24.57,80,32,10.45,RU,1711580548
452,olinda,-8.0089,-34.8553,80.33,94,40,5.75,BR,1711580275
453,la gi,10.6667,107.7833,76.66,87,63,8.77,VN,1711580548
454,ancud,-41.8697,-73.8203,56.43,77,1,9.15,CL,1711580460
455,bartlesville,36.7473,-95.9808,58.1,28,99,1.01,US,1711580421
456,labytnangi,66.6572,66.4183,-9.44,100,95,3.65,RU,1711580549
457,lincoln city,44.9582,-124.0179,54.9,86,84,17.0,US,1711580549
458,realico,-35.0366,-64.2447,67.17,88,96,18.97,AR,1711580549
459,krasnozerskoye,53.9828,79.2374,31.98,99,100,5.61,RU,1711580550
460,penapolis,-21.4197,-50.0775,69.82,97,100,6.69,BR,1711580342
461,crane,31.3974,-102.3501,68.59,13,64,17.0,US,1711580511
462,abalak,58.1286,68.5944,36.36,89,100,7.02,RU,1711580550
463,gap,44.6667,6.0,17.73,89,58,6.24,FR,1711580485
464,nova sintra,14.8667,-24.7167,67.01,74,73,17.63,CV,1711580551
465,hobyo,5.3505,48.5268,83.3,71,82,17.76,SO,1711580551
466,kachkanar,58.7,59.4948,19.51,95,100,11.36,RU,1711580551
467,santa ana,33.7456,-117.8678,77.61,56,75,10.36,US,1711580337
468,lepsy,46.235,78.9456,49.73,58,100,5.26,KZ,1711580488
469,charlottetown,46.2352,-63.1267,48.72,95,100,18.41,CA,1711580404
470,kharhial,20.2833,82.7667,82.56,32,1,2.75,IN,1711580552
471,el haouaria,37.05,11.0144,57.22,71,24,16.49,TN,1711580552
472,katsuura,35.1333,140.3,53.73,62,99,6.55,JP,1711580553
473,zorgo,12.2489,-0.6158,93.34,32,47,5.99,BF,1711580553
474,manay,7.215,126.5397,81.93,72,100,5.93,PH,1711580553
475,kirikhan,36.4994,36.3576,55.63,89,3,1.95,TR,1711580553
476,naracoorte,-36.9579,140.7383,59.81,72,10,7.27,AU,1711580553
477,el bauga,18.262,33.9081,73.2,22,59,7.87,SD,1711580554
478,jiexiu,37.0244,111.9125,48.43,33,1,5.86,CN,1711580554
479,novyy urgal,51.0736,132.5642,23.74,84,100,2.89,RU,1711580554
480,misratah,32.3754,15.0925,62.46,68,55,16.17,LY,1711580554
481,sabang,5.8933,95.3214,83.95,73,90,12.17,ID,1711580555
482,truth or consequences,33.1284,-107.2528,65.91,17,0,6.91,US,1711580555
483,mala,-12.6581,-76.6308,73.98,80,20,7.54,PE,1711580555
484,campbellsville,37.3434,-85.3419,52.25,48,77,4.0,US,1711580368
485,bubaque,11.2833,-15.8333,77.25,72,2,16.84,GW,1711580555
486,kandri,21.4167,79.2667,78.37,31,66,1.12,IN,1711580555
487,kaleke mandi,31.9772,73.6026,70.14,49,98,7.9,PK,1711580556
488,paragominas,-2.9667,-47.4833,74.03,98,74,3.94,BR,1711580448
489,canguaretama,-6.38,-35.1289,75.54,93,100,4.18,BR,1711580357
490,sunne,59.8376,13.143,41.32,93,100,3.67,SE,1711580556
491,luumaki,60.9262,27.5814,35.31,94,100,5.19,FI,1711580557
492,chittagong,22.9167,91.5,73.27,82,2,4.14,BD,1711580557
493,tatsinskiy,48.1968,41.2756,40.03,77,3,5.79,RU,1711580557
494,hotan,37.0997,79.9269,54.23,21,61,5.97,CN,1711580507
495,chernyshevsk,52.5243,117.0174,19.8,63,87,13.73,RU,1711580557
496,sinabang,2.4803,96.3801,80.37,80,87,1.5,ID,1711580498
497,melekeok village,7.4957,134.6367,84.76,79,75,11.5,PW,1711580558
498,colonia menno,-22.3667,-59.8167,86.59,45,54,7.0,PY,1711580558
499,lazaro cardenas,17.9583,-102.2,78.75,55,1,7.94,MX,1711580388
500,marrakesh,31.6315,-8.0083,55.47,71,0,5.75,MA,1711580421
501,marka,1.7159,44.7717,81.84,80,80,14.2,SO,1711580534
502,fisterra,42.9049,-9.2629,48.74,60,88,35.52,ES,1711580559
503,beberibe,-4.1797,-38.1306,76.28,91,100,4.68,BR,1711580543
504,ust-tsilma,65.441,52.1498,-4.4,100,94,1.99,RU,1711580559
505,pacific grove,36.6177,-121.9166,59.65,79,100,17.27,US,1711580426
506,pariaman,-0.619,100.12,80.65,88,96,3.22,ID,1711580560
507,carahue,-38.7,-73.1667,56.23,88,0,3.56,CL,1711580502
508,lamu,-2.2717,40.902,82.49,76,82,6.53,KE,1711580560
509,ketchikan,55.3422,-131.6461,51.35,64,100,3.83,US,1711580448
510,arteche,12.2645,125.4048,79.57,91,62,9.84,PH,1711580560
511,geraldton,-28.7667,114.6,57.61,94,0,4.61,AU,1711580561
512,znamenskoye,57.1281,73.8282,32.97,99,100,4.14,RU,1711580561
513,north platte,41.1239,-100.7654,54.25,45,100,10.0,US,1711580347
514,abou el hassan,36.4166,1.1962,56.64,73,1,11.7,DZ,1711580561
515,chala,-7.5833,31.2667,60.8,95,100,2.04,TZ,1711580562
516,mikhaylovka,50.06,43.2379,33.71,91,5,13.38,RU,1711580475
517,rongelap,11.1635,166.8941,80.51,78,40,16.51,MH,1711580562
518,kichmengskiy gorodok,59.9816,45.7854,29.95,94,98,5.01,RU,1711580562
519,brookings,44.3114,-96.7984,26.6,69,0,17.27,US,1711580402
520,point pedro,9.8167,80.2333,81.82,74,16,10.29,LK,1711580563
521,ranikhet,29.65,79.4167,53.47,51,75,4.41,IN,1711580563
522,laurel,39.0993,-76.8483,48.94,94,100,3.44,US,1711580554
523,kuanda,56.3161,116.0806,5.83,87,100,8.16,RU,1711580563
524,la mira,18.035,-102.3266,80.29,51,0,8.1,MX,1711580564
525,carolina,18.3808,-65.9574,80.01,73,65,5.01,PR,1711580564
526,envira,-7.3,-70.2167,77.05,91,100,4.03,BR,1711580564
527,berezovyy,51.6667,135.7,28.4,80,100,1.86,RU,1711580564
528,pacocha,-17.5833,-71.3333,71.67,86,16,1.86,PE,1711580359
529,black river,18.0264,-77.8487,81.59,65,33,1.88,JM,1711580308
530,kalawit,8.0667,122.5167,79.81,82,97,5.21,PH,1711580565
531,kapa'a,22.0752,-159.319,80.58,77,37,7.0,US,1711580541
532,bontang,0.1333,117.5,77.9,87,99,3.33,ID,1711580565
533,port-gentil,-0.7193,8.7815,84.16,89,40,5.75,GA,1711580565
534,chingirlau,51.095,54.0814,31.84,98,100,10.22,KZ,1711580565
535,okhotsk,59.3833,143.3,18.63,91,95,4.88,RU,1711580566
536,comodoro rivadavia,-45.8667,-67.5,62.46,45,0,11.5,AR,1711580404
537,brokopondo,4.75,-55.1667,83.95,69,96,7.72,SR,1711580566
538,hastings,50.8552,0.5729,49.12,93,59,17.67,GB,1711580400
539,micheweni,-4.9667,39.8333,80.89,80,89,1.01,TZ,1711580566
540,anaconda,46.1285,-112.9423,41.25,65,91,5.57,US,1711580409
541,yarmouth,41.7057,-70.2286,50.14,90,100,3.0,US,1711580567
542,belle plaine,44.6227,-93.7686,28.9,83,100,11.5,US,1711580567
543,chibougamau,49.9168,-74.3659,40.62,93,100,13.8,CA,1711580567
544,luwuk,-0.9516,122.7875,79.97,86,100,0.72,ID,1711580568
545,bakanas,44.8081,76.2772,52.2,74,100,6.46,KZ,1711580568
546,santana,-0.0583,-51.1817,84.38,84,75,8.05,BR,1711580568
547,ocean city,39.2776,-74.5746,46.65,89,99,8.01,US,1711580279
548,lospalos,-8.5186,127.0025,76.91,86,72,2.93,TL,1711580568
549,loa janan,-0.583,117.095,75.16,99,99,0.58,ID,1711580569
550,kadnikov,59.5022,40.338,31.82,98,91,3.62,RU,1711580569
551,enriquillo,17.9,-71.2333,82.08,76,63,7.38,DO,1711580569
552,lautoka,-17.6167,177.4667,85.86,70,75,9.22,FJ,1711580284
553,taco pozo,-25.6167,-63.2833,82.09,43,29,5.03,AR,1711580570
554,vorkuta,67.5,64.0,-11.85,100,88,5.06,RU,1711580273
555,tineo,43.3376,-6.4145,38.62,90,91,11.86,ES,1711580570
556,moose jaw,50.4001,-105.5344,37.67,25,40,12.66,CA,1711580290
557,derzhavinsk,51.1,66.3167,37.4,87,17,10.47,KZ,1711580570
558,camana,-16.6228,-72.7111,75.99,81,23,3.83,PE,1711580427
559,macau,22.2006,113.5461,73.71,88,40,2.3,MO,1711580271
560,hami,42.8,93.45,51.49,36,78,0.63,CN,1711580571
561,pangkalanbuun,-2.6833,111.6167,73.08,99,100,2.39,ID,1711580284
562,isangel,-19.55,169.2667,84.31,79,75,2.3,VU,1711580571
563,kebili,33.7044,8.969,63.73,29,0,10.76,TN,1711580571
564,winsen,53.3667,10.2167,48.42,92,100,7.78,DE,1711580572
565,dolores,-36.3132,-57.6792,65.59,85,94,7.25,AR,1711580572
